{
  "articles": [
    {
      "author": "From Scratch",
      "content": "      Lorem, ipsum dolor sit amet consectetur adipisicing elit. Sapiente doloribus vel sunt laborum eos enim odit maxime corporis vero nihil voluptatum a, ullam delectus ad sit. Odit quis adipisci illo sit porro recusandae? Sequi, dolorum repellendus doloremque qui tempora beatae.",
      "date": 1621530288602,
      "id": 1
    },
    {
      "author": "Bill Gates",
      "content": "Lorem, ipsum dolor sit amet consectetur adipisicing elit. Sapiente doloribus vel sunt laborum eos enim odit maxime corporis vero nihil voluptatum a, ullam delectus ad sit. Odit quis adipisci illo sit porro recusandae? Sequi, dolorum repellendus doloremque qui tempora beatae.\n\nLorem, ipsum dolor sit amet consectetur adipisicing elit. Sapiente doloribus vel sunt laborum eos enim odit maxime corporis vero nihil voluptatum a, ullam delectus ad sit. Odit quis adipisci illo sit porro recusandae? Sequi, dolorum repellendus doloremque qui tempora beatae.",
      "date": 1621536029778,
      "id": 2
    },
    {
      "author": "Mark Zuckerberg",
      "content": "Lorem, ipsum dolor sit amet consectetur adipisicing elit. Sapiente doloribus vel sunt laborum eos enim odit maxime corporis vero nihil voluptatum a, ullam delectus ad sit. Odit quis adipisci illo sit porro recusandae? Sequi, dolorum repellendus doloremque qui tempora beatae.Lorem, ipsum dolor sit amet consectetur adipisicing elit. Sapiente doloribus vel sunt laborum eos enim odit maxime corporis vero nihil voluptatum a, ullam delectus ad sit. ",
      "date": 1621536056135,
      "id": 3
    },
    {
      "author": "hello",
      "content": "GG ca fonctionne !! les limites de react sans Redux ;( edit",
      "date": 1635779071879,
      "id": 4
    }
  ],

 "countries": [
{
        "id": 2967110,
        "name": "Zuydcoote",
        "state": "",
        "country": "FR",
        "coord": {
            "lon": 2.49338,
            "lat": 51.060959
        }
    },
    {
        "id": 2967112,
        "name": "Zutkerque",
        "state": "",
        "country": "FR",
        "coord": {
            "lon": 2.06818,
            "lat": 50.853039
        }
    },
    {
        "id": 2967125,
        "name": "Zonza",
        "state": "",
        "country": "FR",
        "coord": {
            "lon": 9.17102,
            "lat": 41.748131
        }
    },
    {
        "id": 2967126,
        "name": "Zommange",
        "state": "",
        "country": "FR",
        "coord": {
            "lon": 6.80431,
            "lat": 48.824162
        }
    },
    {
        "id": 2967137,
        "name": "Zimmersheim",
        "state": "",
        "country": "FR",
        "coord": {
            "lon": 7.3882,
            "lat": 47.720211
        }
    },
    {
        "id": 2967139,
        "name": "Zillisheim",
        "state": "",
        "country": "FR",
        "coord": {
            "lon": 7.29516,
            "lat": 47.695621
        }
    },
    {
        "id": 2967145,
        "name": "Zicavo",
        "state": "",
        "country": "FR",
        "coord": {
            "lon": 9.12931,
            "lat": 41.906712
        }
    },
    {
        "id": 2967152,
        "name": "Zelsheim",
        "state": "",
        "country": "FR",
        "coord": {
            "lon": 7.64322,
            "lat": 48.29855
        }
    },
    {
        "id": 2967157,
        "name": "Zegerscappel",
        "state": "",
        "country": "FR",
        "coord": {
            "lon": 2.4,
            "lat": 50.883331
        }
    },
    {
        "id": 2967165,
        "name": "Yzeures-sur-Creuse",
        "state": "",
        "country": "FR",
        "coord": {
            "lon": 0.87166,
            "lat": 46.786091
        }
    },
    {
        "id": 2967166,
        "name": "Yzeure",
        "state": "",
        "country": "FR",
        "coord": {
            "lon": 3.35495,
            "lat": 46.564381
        }
    },
    {
        "id": 2967169,
        "name": "Yzernay",
        "state": "",
        "country": "FR",
        "coord": {
            "lon": -0.70294,
            "lat": 47.022289
        }
    },
    {
        "id": 2967175,
        "name": "Yvré-le-Pôlin",
        "state": "",
        "country": "FR",
        "coord": {
            "lon": 0.15581,
            "lat": 47.82235
        }
    },
    {
        "id": 2967177,
        "name": "Yvrandes",
        "state": "",
        "country": "FR",
        "coord": {
            "lon": -0.75136,
            "lat": 48.719391
        }
    },
    {
        "id": 2967179,
        "name": "Yvrac",
        "state": "",
        "country": "FR",
        "coord": {
            "lon": -0.4587,
            "lat": 44.877861
        }
    },
    {
        "id": 2967183,
        "name": "Yvignac-la-Tour",
        "state": "",
        "country": "FR",
        "coord": {
            "lon": -2.18333,
            "lat": 48.349998
        }
    },
    {
        "id": 2967189,
        "name": "Yvetot",
        "state": "",
        "country": "FR",
        "coord": {
            "lon": 0.75814,
            "lat": 49.617439
        }
    },
    {
        "id": 2967191,
        "name": "Yves",
        "state": "",
        "country": "FR",
        "coord": {
            "lon": -1.04833,
            "lat": 46.019218
        }
    },
    {
        "id": 2967196,
        "name": "Yvelines",
        "state": "",
        "country": "FR",
        "coord": {
            "lon": 1.86667,
            "lat": 48.783329
        }
    },
    {
        "id": 2967201,
        "name": "Ytrac",
        "state": "",
        "country": "FR",
        "coord": {
            "lon": 2.36295,
            "lat": 44.913429
        }
    },
    {
        "id": 2967202,
        "name": "Arrondissement d'Yssingeaux",
        "state": "",
        "country": "FR",
        "coord": {
            "lon": 4.16667,
            "lat": 45.166672
        }
    },
    {
        "id": 2967203,
        "name": "Yssingeaux",
        "state": "",
        "country": "FR",
        "coord": {
            "lon": 4.11667,
            "lat": 45.133331
        }
    },
    {
        "id": 2967205,
        "name": "Yssandon",
        "state": "",
        "country": "FR",
        "coord": {
            "lon": 1.36827,
            "lat": 45.210999
        }
    },
    {
        "id": 2967207,
        "name": "Yssac-la-Tourette",
        "state": "",
        "country": "FR",
        "coord": {
            "lon": 3.09226,
            "lat": 45.934109
        }
    },
    {
        "id": 2967210,
        "name": "Yronde",
        "state": "",
        "country": "FR",
        "coord": {
            "lon": 3.25376,
            "lat": 45.612331
        }
    },
    {
        "id": 2967213,
        "name": "Yquelon",
        "state": "",
        "country": "FR",
        "coord": {
            "lon": -1.55611,
            "lat": 48.84811
        }
    },
    {
        "id": 2967217,
        "name": "Yport",
        "state": "",
        "country": "FR",
        "coord": {
            "lon": 0.31537,
            "lat": 49.73716
        }
    },
    {
        "id": 2967218,
        "name": "Youx",
        "state": "",
        "country": "FR",
        "coord": {
            "lon": 2.80004,
            "lat": 46.144409
        }
    },
    {
        "id": 2967222,
        "name": "Yonne",
        "state": "",
        "country": "FR",
        "coord": {
            "lon": 3.75,
            "lat": 47.916672
        }
    },
    {
        "id": 2967226,
        "name": "Yolet",
        "state": "",
        "country": "FR",
        "coord": {
            "lon": 2.53174,
            "lat": 44.926399
        }
    },
    {
        "id": 2967229,
        "name": "Ymeray",
        "state": "",
        "country": "FR",
        "coord": {
            "lon": 1.70029,
            "lat": 48.510029
        }
    },
    {
        "id": 2967230,
        "name": "Ymare",
        "state": "",
        "country": "FR",
        "coord": {
            "lon": 1.17938,
            "lat": 49.350601
        }
    },
    {
        "id": 2967231,
        "name": "Ygrande",
        "state": "",
        "country": "FR",
        "coord": {
            "lon": 2.94239,
            "lat": 46.552662
        }
    }
]
}